{
  "version": "1.0",
  "updatedAt": "2026-02-13",
  "airports": [
    {"code": "YNT", "name": "烟台蓬莱国际机场", "city": "烟台", "province": "山东", "lat": 37.6644, "lng": 120.9341, "enabled": true},
    {"code": "TAO", "name": "青岛胶东国际机场", "city": "青岛", "province": "山东", "lat": 36.2611, "lng": 119.8544, "enabled": true},
    {"code": "WEH", "name": "威海大水泊机场", "city": "威海", "province": "山东", "lat": 37.1873, "lng": 122.2285, "enabled": true},
    {"code": "SHA", "name": "上海虹桥国际机场", "city": "上海", "province": "上海", "lat": 31.1978, "lng": 121.3361, "enabled": true},
    {"code": "PVG", "name": "上海浦东国际机场", "city": "上海", "province": "上海", "lat": 31.1434, "lng": 121.8050, "enabled": true},
    {"code": "PEK", "name": "北京首都国际机场", "city": "北京", "province": "北京", "lat": 40.0725, "lng": 116.5850, "enabled": true},
    {"code": "PKX", "name": "北京大兴国际机场", "city": "北京", "province": "北京", "lat": 39.5098, "lng": 116.4106, "enabled": true},
    {"code": "CAN", "name": "广州白云国际机场", "city": "广州", "province": "广东", "lat": 23.3924, "lng": 113.2988, "enabled": true},
    {"code": "SZX", "name": "深圳宝安国际机场", "city": "深圳", "province": "广东", "lat": 22.6393, "lng": 113.8107, "enabled": true},
    {"code": "CTU", "name": "成都双流国际机场", "city": "成都", "province": "四川", "lat": 30.5785, "lng": 103.9471, "enabled": true},
    {"code": "TFU", "name": "成都天府国际机场", "city": "成都", "province": "四川", "lat": 30.3194, "lng": 104.4452, "enabled": true},
    {"code": "CKG", "name": "重庆江北国际机场", "city": "重庆", "province": "重庆", "lat": 29.7192, "lng": 106.6417, "enabled": true},
    {"code": "HGH", "name": "杭州萧山国际机场", "city": "杭州", "province": "浙江", "lat": 30.2295, "lng": 120.4343, "enabled": true},
    {"code": "NKG", "name": "南京禄口国际机场", "city": "南京", "province": "江苏", "lat": 31.7420, "lng": 118.8622, "enabled": true},
    {"code": "WUX", "name": "无锡硕放机场", "city": "无锡", "province": "江苏", "lat": 31.7461, "lng": 120.4328, "enabled": true},
    {"code": "SZV", "name": "苏州没有机场", "city": "苏州", "province": "江苏", "lat": 31.2990, "lng": 120.5853, "enabled": false},
    {"code": "XIY", "name": "西安咸阳国际机场", "city": "西安", "province": "陕西", "lat": 34.4471, "lng": 108.7516, "enabled": true},
    {"code": "WUH", "name": "武汉天河国际机场", "city": "武汉", "province": "湖北", "lat": 30.7838, "lng": 114.2081, "enabled": true},
    {"code": "CSX", "name": "长沙黄花国际机场", "city": "长沙", "province": "湖南", "lat": 28.1892, "lng": 113.2200, "enabled": true},
    {"code": "KMG", "name": "昆明长水国际机场", "city": "昆明", "province": "云南", "lat": 25.1019, "lng": 102.9292, "enabled": true},
    {"code": "SYX", "name": "三亚凤凰国际机场", "city": "三亚", "province": "海南", "lat": 18.3029, "lng": 109.4122, "enabled": true},
    {"code": "HAK", "name": "海口美兰国际机场", "city": "海口", "province": "海南", "lat": 19.9349, "lng": 110.4590, "enabled": true},
    {"code": "XMN", "name": "厦门高崎国际机场", "city": "厦门", "province": "福建", "lat": 24.5440, "lng": 118.1277, "enabled": true},
    {"code": "FOC", "name": "福州长乐国际机场", "city": "福州", "province": "福建", "lat": 25.9351, "lng": 119.6632, "enabled": true},
    {"code": "TSN", "name": "天津滨海国际机场", "city": "天津", "province": "天津", "lat": 39.1244, "lng": 117.3463, "enabled": true},
    {"code": "SJW", "name": "石家庄正定国际机场", "city": "石家庄", "province": "河北", "lat": 38.2837, "lng": 114.6974, "enabled": true},
    {"code": "TYN", "name": "太原武宿国际机场", "city": "太原", "province": "山西", "lat": 37.7870, "lng": 112.6283, "enabled": true},
    {"code": "HET", "name": "呼和浩特白塔国际机场", "city": "呼和浩特", "province": "内蒙古", "lat": 40.8514, "lng": 111.8240, "enabled": true},
    {"code": "DLU", "name": "大理凤仪机场", "city": "大理", "province": "云南", "lat": 25.6516, "lng": 100.3183, "enabled": true},
    {"code": "LJG", "name": "丽江三义国际机场", "city": "丽江", "province": "云南", "lat": 26.6731, "lng": 100.2472, "enabled": true},
    {"code": "JHG", "name": "西双版纳嘎洒国际机场", "city": "西双版纳", "province": "云南", "lat": 22.0376, "lng": 100.7614, "enabled": true},
    {"code": "ZUH", "name": "珠海金湾机场", "city": "珠海", "province": "广东", "lat": 22.0058, "lng": 113.3764, "enabled": true},
    {"code": "SWA", "name": "揭阳潮汕国际机场", "city": "揭阳", "province": "广东", "lat": 23.5527, "lng": 116.5153, "enabled": true},
    {"code": "WZS", "name": "温州龙湾国际机场", "city": "温州", "province": "浙江", "lat": 27.9146, "lng": 120.8517, "enabled": true},
    {"code": "NGB", "name": "宁波栎社国际机场", "city": "宁波", "province": "浙江", "lat": 29.8267, "lng": 121.4586, "enabled": true},
    {"code": "CGO", "name": "郑州新郑国际机场", "city": "郑州", "province": "河南", "lat": 34.5197, "lng": 113.8408, "enabled": true},
    {"code": "LHW", "name": "兰州中川国际机场", "city": "兰州", "province": "甘肃", "lat": 36.5152, "lng": 103.6205, "enabled": true},
    {"code": "URC", "name": "乌鲁木齐地窝堡国际机场", "city": "乌鲁木齐", "province": "新疆", "lat": 43.9071, "lng": 87.4742, "enabled": true},
    {"code": "HRB", "name": "哈尔滨太平国际机场", "city": "哈尔滨", "province": "黑龙江", "lat": 45.6234, "lng": 126.2503, "enabled": true},
    {"code": "SHE", "name": "沈阳桃仙国际机场", "city": "沈阳", "province": "辽宁", "lat": 41.6397, "lng": 123.4833, "enabled": true},
    {"code": "DLC", "name": "大连周水子国际机场", "city": "大连", "province": "辽宁", "lat": 38.9657, "lng": 121.5386, "enabled": true},
    {"code": "CGQ", "name": "长春龙嘉国际机场", "city": "长春", "province": "吉林", "lat": 43.9962, "lng": 125.6850, "enabled": true},
    {"code": "NNG", "name": "南宁吴圩国际机场", "city": "南宁", "province": "广西", "lat": 22.6085, "lng": 108.1723, "enabled": true},
    {"code": "KWL", "name": "桂林两江国际机场", "city": "桂林", "province": "广西", "lat": 25.2181, "lng": 110.0394, "enabled": true},
    {"code": "GYU", "name": "固原六盘山机场", "city": "固原", "province": "宁夏", "lat": 36.0089, "lng": 106.3811, "enabled": true},
    {"code": "INC", "name": "银川河东国际机场", "city": "银川", "province": "宁夏", "lat": 38.3219, "lng": 106.3927, "enabled": true},
    {"code": "XNN", "name": "西宁曹家堡国际机场", "city": "西宁", "province": "青海", "lat": 36.5275, "lng": 102.0433, "enabled": true},
    {"code": "LXA", "name": "拉萨贡嘎国际机场", "city": "拉萨", "province": "西藏", "lat": 29.2978, "lng": 90.9119, "enabled": true},
    {"code": "NAO", "name": "南充高坪机场", "city": "南充", "province": "四川", "lat": 30.7617, "lng": 106.1483, "enabled": true},
    {"code": "MIG", "name": "绵阳南郊机场", "city": "绵阳", "province": "四川", "lat": 31.4281, "lng": 104.7456, "enabled": true},
    {"code": "YBP", "name": "宜宾菜坝机场", "city": "宜宾", "province": "四川", "lat": 28.8019, "lng": 104.5503, "enabled": true},
    {"code": "LZO", "name": "泸州云龙机场", "city": "泸州", "province": "四川", "lat": 28.9531, "lng": 105.3819, "enabled": true},
    {"code": "GYS", "name": "广元盘龙机场", "city": "广元", "province": "四川", "lat": 32.3914, "lng": 105.6939, "enabled": true},
    {"code": "DAX", "name": "达州河市机场", "city": "达州", "province": "四川", "lat": 31.2989, "lng": 107.4333, "enabled": true},
    {"code": "XIC", "name": "西昌青山机场", "city": "西昌", "province": "四川", "lat": 27.9892, "lng": 102.1878, "enabled": true},
    {"code": "PZI", "name": "攀枝花保安营机场", "city": "攀枝花", "province": "四川", "lat": 26.5389, "lng": 101.7972, "enabled": true},
    {"code": "JZH", "name": "九寨黄龙机场", "city": "九寨沟", "province": "四川", "lat": 32.8533, "lng": 103.7431, "enabled": true},
    {"code": "BPX", "name": "稻城亚丁机场", "city": "稻城", "province": "四川", "lat": 29.3061, "lng": 100.0614, "enabled": true},
    {"code": "KGT", "name": "康定机场", "city": "康定", "province": "四川", "lat": 30.1578, "lng": 101.7333, "enabled": true},
    {"code": "ENH", "name": "恩施许家坪机场", "city": "恩施", "province": "湖北", "lat": 30.3183, "lng": 109.4861, "enabled": true},
    {"code": "YIH", "name": "宜昌三峡机场", "city": "宜昌", "province": "湖北", "lat": 30.5511, "lng": 111.4708, "enabled": true},
    {"code": "XFN", "name": "襄阳刘集机场", "city": "襄阳", "province": "湖北", "lat": 32.0517, "lng": 112.2917, "enabled": true},
    {"code": "SHS", "name": "荆州沙市机场", "city": "荆州", "province": "湖北", "lat": 30.3231, "lng": 112.2403, "enabled": true},
    {"code": "DYG", "name": "张家界荷花国际机场", "city": "张家界", "province": "湖南", "lat": 29.1039, "lng": 110.4431, "enabled": true},
    {"code": "CGD", "name": "常德桃花源机场", "city": "常德", "province": "湖南", "lat": 28.9214, "lng": 111.5322, "enabled": true},
    {"code": "HNY", "name": "衡阳南岳机场", "city": "衡阳", "province": "湖南", "lat": 27.0236, "lng": 112.6972, "enabled": true},
    {"code": "LLF", "name": "永州零陵机场", "city": "永州", "province": "湖南", "lat": 26.3372, "lng": 111.6214, "enabled": true},
    {"code": "JGN", "name": "酒泉卫星发射中心机场", "city": "酒泉", "province": "甘肃", "lat": 40.2500, "lng": 99.7500, "enabled": true},
    {"code": "DNH", "name": "敦煌莫高国际机场", "city": "敦煌", "province": "甘肃", "lat": 40.1597, "lng": 94.8053, "enabled": true},
    {"code": "JNJ", "name": "嘉峪关机场", "city": "嘉峪关", "province": "甘肃", "lat": 39.7708, "lng": 98.3431, "enabled": true},
    {"code": "IQM", "name": "庆阳机场", "city": "庆阳", "province": "甘肃", "lat": 35.8000, "lng": 107.6000, "enabled": true},
    {"code": "CHW", "name": "昌都邦达机场", "city": "昌都", "province": "西藏", "lat": 30.5533, "lng": 97.1067, "enabled": true},
    {"code": "NGQ", "name": "阿里昆莎机场", "city": "阿里", "province": "西藏", "lat": 32.1000, "lng": 80.0500, "enabled": true},
    {"code": "LZY", "name": "林芝米林机场", "city": "林芝", "province": "西藏", "lat": 29.3000, "lng": 94.3333, "enabled": true},
    {"code": "RKZ", "name": "日喀则和平机场", "city": "日喀则", "province": "西藏", "lat": 29.3333, "lng": 88.8833, "enabled": true},
    {"code": "HTN", "name": "和田昆冈机场", "city": "和田", "province": "新疆", "lat": 37.0333, "lng": 79.8667, "enabled": true},
    {"code": "KHG", "name": "喀什机场", "city": "喀什", "province": "新疆", "lat": 39.5333, "lng": 75.9833, "enabled": true},
    {"code": "KRL", "name": "库尔勒机场", "city": "库尔勒", "province": "新疆", "lat": 41.6833, "lng": 86.1500, "enabled": true},
    {"code": "KCA", "name": "库车龟兹机场", "city": "库车", "province": "新疆", "lat": 41.7167, "lng": 82.9333, "enabled": true},
    {"code": "AKU", "name": "阿克苏温宿机场", "city": "阿克苏", "province": "新疆", "lat": 41.2667, "lng": 80.2833, "enabled": true},
    {"code": "TCG", "name": "塔城机场", "city": "塔城", "province": "新疆", "lat": 46.7833, "lng": 82.8833, "enabled": true},
    {"code": "BPL", "name": "博乐阿拉山口机场", "city": "博乐", "province": "新疆", "lat": 44.9000, "lng": 82.0833, "enabled": true},
    {"code": "KJI", "name": "喀纳斯机场", "city": "喀纳斯", "province": "新疆", "lat": 48.0667, "lng": 86.8500, "enabled": true},
    {"code": "AAT", "name": "阿勒泰机场", "city": "阿勒泰", "province": "新疆", "lat": 47.7500, "lng": 88.0833, "enabled": true},
    {"code": "NLT", "name": "那拉提机场", "city": "那拉提", "province": "新疆", "lat": 43.4333, "lng": 84.0500, "enabled": true},
    {"code": "YIN", "name": "伊宁机场", "city": "伊宁", "province": "新疆", "lat": 43.9500, "lng": 81.1333, "enabled": true},
    {"code": "HMI", "name": "哈密机场", "city": "哈密", "province": "新疆", "lat": 42.8167, "lng": 93.6000, "enabled": true},
    {"code": "TLQ", "name": "吐鲁番交河机场", "city": "吐鲁番", "province": "新疆", "lat": 42.8500, "lng": 89.1000, "enabled": true},
    {"code": "KRY", "name": "克拉玛依机场", "city": "克拉玛依", "province": "新疆", "lat": 45.4500, "lng": 84.8667, "enabled": true},
    {"code": "SHF", "name": "石河子花园机场", "city": "石河子", "province": "新疆", "lat": 44.3500, "lng": 86.0333, "enabled": true},
    {"code": "ZYI", "name": "遵义新舟机场", "city": "遵义", "province": "贵州", "lat": 27.8000, "lng": 107.1833, "enabled": true},
    {"code": "KWE", "name": "贵阳龙洞堡国际机场", "city": "贵阳", "province": "贵州", "lat": 26.3833, "lng": 106.8000, "enabled": true},
    {"code": "TEN", "name": "铜仁凤凰机场", "city": "铜仁", "province": "贵州", "lat": 27.8833, "lng": 109.3000, "enabled": true},
    {"code": "LDS", "name": "六盘水月照机场", "city": "六盘水", "province": "贵州", "lat": 26.4000, "lng": 104.9333, "enabled": true},
    {"code": "BFU", "name": "安庆天柱山机场", "city": "安庆", "province": "安徽", "lat": 30.5333, "lng": 117.0500, "enabled": true},
    {"code": "HFE", "name": "合肥新桥国际机场", "city": "合肥", "province": "安徽", "lat": 31.9806, "lng": 116.9769, "enabled": true},
    {"code": "FYN", "name": "阜阳西关机场", "city": "阜阳", "province": "安徽", "lat": 32.8667, "lng": 115.7333, "enabled": true},
    {"code": "TXN", "name": "黄山屯溪国际机场", "city": "黄山", "province": "安徽", "lat": 29.7333, "lng": 118.2500, "enabled": true},
    {"code": "WHU", "name": "芜湖宣州机场", "city": "芜湖", "province": "安徽", "lat": 31.3500, "lng": 118.5500, "enabled": true},
    {"code": "JDZ", "name": "景德镇罗家机场", "city": "景德镇", "province": "江西", "lat": 29.3000, "lng": 117.2000, "enabled": true},
    {"code": "KHN", "name": "南昌昌北国际机场", "city": "南昌", "province": "江西", "lat": 28.8650, "lng": 115.9000, "enabled": true},
    {"code": "JGS", "name": "井冈山机场", "city": "井冈山", "province": "江西", "lat": 26.8500, "lng": 114.7333, "enabled": true},
    {"code": "KOW", "name": "赣州黄金机场", "city": "赣州", "province": "江西", "lat": 25.8667, "lng": 114.7833, "enabled": true},
    {"code": "JIU", "name": "九江庐山机场", "city": "九江", "province": "江西", "lat": 29.5167, "lng": 115.9667, "enabled": true},
    {"code": "YIC", "name": "宜春明月山机场", "city": "宜春", "province": "江西", "lat": 27.8000, "lng": 114.3000, "enabled": true},
    {"code": "SQJ", "name": "上饶三清山机场", "city": "上饶", "province": "江西", "lat": 28.4167, "lng": 117.9667, "enabled": true},
    {"code": "TNA", "name": "济南遥墙国际机场", "city": "济南", "province": "山东", "lat": 36.8542, "lng": 117.2157, "enabled": true}
  ],
  "cities": {
    "烟台": {"lat": 37.4638, "lng": 121.4478},
    "青岛": {"lat": 36.0671, "lng": 120.3826},
    "威海": {"lat": 37.5131, "lng": 122.1201},
    "济南": {"lat": 36.6512, "lng": 117.1201},
    "上海": {"lat": 31.2304, "lng": 121.4737},
    "北京": {"lat": 39.9042, "lng": 116.4074},
    "广州": {"lat": 23.1291, "lng": 113.2644},
    "深圳": {"lat": 22.5431, "lng": 114.0579},
    "成都": {"lat": 30.5728, "lng": 104.0668},
    "重庆": {"lat": 29.4316, "lng": 106.9123},
    "杭州": {"lat": 30.2741, "lng": 120.1551},
    "南京": {"lat": 32.0603, "lng": 118.7969},
    "无锡": {"lat": 31.4912, "lng": 120.3119},
    "苏州": {"lat": 31.2990, "lng": 120.5853},
    "西安": {"lat": 34.3416, "lng": 108.9398},
    "武汉": {"lat": 30.5928, "lng": 114.3055},
    "长沙": {"lat": 28.2282, "lng": 112.9388},
    "昆明": {"lat": 25.0389, "lng": 102.7183},
    "三亚": {"lat": 18.2528, "lng": 109.5120},
    "海口": {"lat": 20.0440, "lng": 110.1999},
    "厦门": {"lat": 24.4798, "lng": 118.0894},
    "福州": {"lat": 26.0745, "lng": 119.2965},
    "天津": {"lat": 39.0842, "lng": 117.2009},
    "石家庄": {"lat": 38.0428, "lng": 114.5149},
    "太原": {"lat": 37.8706, "lng": 112.5489},
    "呼和浩特": {"lat": 40.8414, "lng": 111.7519},
    "大理": {"lat": 25.6065, "lng": 100.2676},
    "丽江": {"lat": 26.8721, "lng": 100.2297},
    "西双版纳": {"lat": 22.0090, "lng": 100.7973},
    "珠海": {"lat": 22.2707, "lng": 113.5767},
    "揭阳": {"lat": 23.5499, "lng": 116.3728},
    "温州": {"lat": 27.9945, "lng": 120.6994},
    "宁波": {"lat": 29.8683, "lng": 121.5440},
    "郑州": {"lat": 34.7466, "lng": 113.6254},
    "兰州": {"lat": 36.0611, "lng": 103.8343},
    "乌鲁木齐": {"lat": 43.8256, "lng": 87.6168},
    "哈尔滨": {"lat": 45.8038, "lng": 126.5350},
    "沈阳": {"lat": 41.8057, "lng": 123.4315},
    "大连": {"lat": 38.9140, "lng": 121.6147},
    "长春": {"lat": 43.8171, "lng": 125.3235},
    "南宁": {"lat": 22.8170, "lng": 108.3665},
    "桂林": {"lat": 25.2744, "lng": 110.2900},
    "银川": {"lat": 38.4872, "lng": 106.2309},
    "西宁": {"lat": 36.6171, "lng": 101.7782},
    "拉萨": {"lat": 29.6500, "lng": 91.1000},
    "贵阳": {"lat": 26.6470, "lng": 106.6302},
    "合肥": {"lat": 31.8206, "lng": 117.2272},
    "南昌": {"lat": 28.6820, "lng": 115.8579}
  }
}
