{
  "version": "1.0",
  "updatedAt": "2026-02-16",
  "stations": [
    {"code": "YNT", "name": "烟台站", "city": "烟台", "province": "山东", "lat": 37.4638, "lng": 121.3889, "type": "high_speed"},
    {"code": "YTX", "name": "烟台南站", "city": "烟台", "province": "山东", "lat": 37.3956, "lng": 121.2833, "type": "high_speed"},
    {"code": "QDK", "name": "青岛站", "city": "青岛", "province": "山东", "lat": 36.0658, "lng": 120.3199, "type": "high_speed"},
    {"code": "QDBe", "name": "青岛北站", "city": "青岛", "province": "山东", "lat": 36.1806, "lng": 120.3667, "type": "high_speed"},
    {"code": "QDX", "name": "青岛西站", "city": "青岛", "province": "山东", "lat": 35.8833, "lng": 119.9333, "type": "high_speed"},
    {"code": "JNK", "name": "济南站", "city": "济南", "province": "山东", "lat": 36.6667, "lng": 116.9972, "type": "high_speed"},
    {"code": "JNX", "name": "济南西站", "city": "济南", "province": "山东", "lat": 36.6528, "lng": 116.8417, "type": "high_speed"},
    {"code": "JND", "name": "济南东站", "city": "济南", "province": "山东", "lat": 36.7000, "lng": 117.2000, "type": "high_speed"},
    {"code": "WEH", "name": "威海站", "city": "威海", "province": "山东", "lat": 37.4833, "lng": 122.1167, "type": "high_speed"},
    {"code": "RZH", "name": "日照西站", "city": "日照", "province": "山东", "lat": 35.4167, "lng": 119.5333, "type": "high_speed"},
    {"code": "WFH", "name": "潍坊站", "city": "潍坊", "province": "山东", "lat": 36.7167, "lng": 119.1000, "type": "high_speed"},
    {"code": "ZBZ", "name": "淄博站", "city": "淄博", "province": "山东", "lat": 36.8000, "lng": 118.0333, "type": "high_speed"},
    {"code": "SHH", "name": "上海虹桥站", "city": "上海", "province": "上海", "lat": 31.1944, "lng": 121.3206, "type": "high_speed"},
    {"code": "SHN", "name": "上海站", "city": "上海", "province": "上海", "lat": 31.2472, "lng": 121.4556, "type": "high_speed"},
    {"code": "BJN", "name": "北京南站", "city": "北京", "province": "北京", "lat": 39.8653, "lng": 116.3789, "type": "high_speed"},
    {"code": "BJX", "name": "北京西站", "city": "北京", "province": "北京", "lat": 39.8946, "lng": 116.3222, "type": "high_speed"},
    {"code": "TJN", "name": "天津站", "city": "天津", "province": "天津", "lat": 39.1367, "lng": 117.2089, "type": "high_speed"},
    {"code": "TJX", "name": "天津西站", "city": "天津", "province": "天津", "lat": 39.1522, "lng": 117.0583, "type": "high_speed"},
    {"code": "NJN", "name": "南京南站", "city": "南京", "province": "江苏", "lat": 31.9722, "lng": 118.7944, "type": "high_speed"},
    {"code": "NJH", "name": "南京站", "city": "南京", "province": "江苏", "lat": 32.0892, "lng": 118.8006, "type": "high_speed"},
    {"code": "HZD", "name": "杭州东站", "city": "杭州", "province": "浙江", "lat": 30.2908, "lng": 120.2133, "type": "high_speed"},
    {"code": "HZZ", "name": "杭州站", "city": "杭州", "province": "浙江", "lat": 30.2433, "lng": 120.1833, "type": "high_speed"},
    {"code": "GZN", "name": "广州南站", "city": "广州", "province": "广东", "lat": 22.9892, "lng": 113.2694, "type": "high_speed"},
    {"code": "GZH", "name": "广州站", "city": "广州", "province": "广东", "lat": 23.1481, "lng": 113.2567, "type": "high_speed"},
    {"code": "SZP", "name": "深圳北站", "city": "深圳", "province": "广东", "lat": 22.6097, "lng": 114.0297, "type": "high_speed"},
    {"code": "SZF", "name": "深圳站", "city": "深圳", "province": "广东", "lat": 22.5328, "lng": 114.1167, "type": "high_speed"},
    {"code": "CWN", "name": "成都东站", "city": "成都", "province": "四川", "lat": 30.6308, "lng": 104.1367, "type": "high_speed"},
    {"code": "CWD", "name": "成都站", "city": "成都", "province": "四川", "lat": 30.7064, "lng": 104.0819, "type": "high_speed"},
    {"code": "WHN", "name": "武汉站", "city": "武汉", "province": "湖北", "lat": 30.6142, "lng": 114.4167, "type": "high_speed"},
    {"code": "WHH", "name": "武汉站", "city": "武汉", "province": "湖北", "lat": 30.6142, "lng": 114.4167, "type": "high_speed"},
    {"code": "CSN", "name": "长沙南站", "city": "长沙", "province": "湖南", "lat": 28.1533, "lng": 113.0719, "type": "high_speed"},
    {"code": "XAN", "name": "西安北站", "city": "西安", "province": "陕西", "lat": 34.3783, "lng": 108.9394, "type": "high_speed"},
    {"code": "ZYF", "name": "郑州东站", "city": "郑州", "province": "河南", "lat": 34.7533, "lng": 113.7764, "type": "high_speed"},
    {"code": "SYN", "name": "沈阳北站", "city": "沈阳", "province": "辽宁", "lat": 41.8283, "lng": 123.4556, "type": "high_speed"},
    {"code": "DLN", "name": "大连北站", "city": "大连", "province": "辽宁", "lat": 38.9833, "lng": 121.5500, "type": "high_speed"},
    {"code": "DLZ", "name": "大连站", "city": "大连", "province": "辽宁", "lat": 38.9083, "lng": 121.6333, "type": "high_speed"}
  ],
  "cityStationMap": {
    "烟台": ["YNT", "YTX"],
    "青岛": ["QDK", "QDBe", "QDX"],
    "济南": ["JNK", "JNX", "JND"],
    "威海": ["WEH"],
    "日照": ["RZH"],
    "潍坊": ["WFH"],
    "淄博": ["ZBZ"],
    "上海": ["SHH", "SHN"],
    "北京": ["BJN", "BJX"],
    "天津": ["TJN", "TJX"],
    "南京": ["NJN", "NJH"],
    "杭州": ["HZD", "HZZ"],
    "广州": ["GZN", "GZH"],
    "深圳": ["SZP", "SZF"],
    "成都": ["CWN", "CWD"],
    "武汉": ["WHN"],
    "长沙": ["CSN"],
    "西安": ["XAN"],
    "郑州": ["ZYF"],
    "沈阳": ["SYN"],
    "大连": ["DLN", "DLZ"]
  },
  "trainTypes": {
    "G": {"name": "高铁", "speedKmh": 300, "costPerKm": 0.45},
    "D": {"name": "动车", "speedKmh": 250, "costPerKm": 0.30},
    "C": {"name": "城际", "speedKmh": 200, "costPerKm": 0.25},
    "T": {"name": "特快", "speedKmh": 140, "costPerKm": 0.15},
    "K": {"name": "快速", "speedKmh": 120, "costPerKm": 0.10}
  }
}
